{
    "data": [
{
"srno": 4255,
"health_facility_name": "CGHS Wellness Centre Kali Bari",
"address": "DIZ Area",
"street": "Udyan marg",
"landmark": "Near Birla Mandir",
"locality": "Kalibari Marg",
"pincode": 110001,
"landline_number": "011-23743142",
"latitude": 28.62889609,
"longitude": 77.20007204,
"altitude": "0",
"facility_type": "Dispensaries",
"state_name": "Delhi",
"district_name": "New Delhi",
"taluka_name": "Chanakya Puri",
"block_name": "N"
},
{
"srno": 4264,
"health_facility_name": "Palika Kendra Allopathic Dispensary",
"address": "Ground Floor",
"street": "Palika Kendra",
"landmark": "NA",
"locality": "Cannaught Place",
"pincode": 110001,
"landline_number": "011-23368548",
"latitude": 28.62829263,
"longitude": 77.21560709,
"altitude": "0",
"facility_type": "Dispensaries",
"state_name": "Delhi",
"district_name": "New Delhi",
"taluka_name": "Chanakya Puri",
"block_name": "N"
},
{
"srno": 4265,
"health_facility_name": "Community Hall Allopathic Dispensary",
"address": "1st",
"street": "floor",
"landmark": "punchkuian Road",
"locality": "punchkuian Road",
"pincode": 110001,
"landline_number": "011-23342957",
"latitude": 28.64196636,
"longitude": 77.20283462,
"altitude": "0",
"facility_type": "Dispensaries",
"state_name": "Delhi",
"district_name": "New Delhi",
"taluka_name": "Chanakya Puri",
"block_name": "N"
},
{
"srno": 4266,
"health_facility_name": "Baird Lane Allopathic Dispensary",
"address": "Poly clinic complex",
"street": "1st Floor",
"landmark": "Oppsite Lady Harding Medical College",
"locality": "Bhagat Sing Marg",
"pincode": 110001,
"landline_number": "011-23347603",
"latitude": 28.63303017,
"longitude": 77.21127199,
"altitude": "0",
"facility_type": "Dispensaries",
"state_name": "Delhi",
"district_name": "New Delhi",
"taluka_name": "Chanakya Puri",
"block_name": "N"
},
{
"srno": 4267,
"health_facility_name": "Babar Road Allopathic Dispensary",
"address": "42",
"street": "Ground Floor",
"landmark": "Dispensary Complex",
"locality": "Babar Road",
"pincode": 110001,
"landline_number": "011-23739285",
"latitude": 28.62956974,
"longitude": 77.23406657,
"altitude": "0",
"facility_type": "Dispensaries",
"state_name": "Delhi",
"district_name": "New Delhi",
"taluka_name": "Chanakya Puri",
"block_name": "N"
},
{
"srno": 4268,
"health_facility_name": "H.C.M. Lane Allopathic Dispensary",
"address": "Dispensary",
"street": "Complex",
"landmark": "Janpath",
"locality": "Harish Chand Mathur Lane",
"pincode": 110001,
"landline_number": "011-23717670",
"latitude": 28.62189413,
"longitude": 77.22093498,
"altitude": "0",
"facility_type": "Dispensaries",
"state_name": "Delhi",
"district_name": "New Delhi",
"taluka_name": "Chanakya Puri",
"block_name": "N"
},
{
"srno": 4293,
"health_facility_name": "CGHS Dispensary Telegraph Lane",
"address": "18-A",
"street": "Telegraph Lane",
"landmark": "Diwanchand Imangning centre",
"locality": "Near Bhartiya Vidya Bhawan",
"pincode": 110001,
"landline_number": "011-23326601",
"latitude": 28.62293163,
"longitude": 77.22329866,
"altitude": "0",
"facility_type": "Dispensaries",
"state_name": "Delhi",
"district_name": "New Delhi",
"taluka_name": "Chanakya Puri",
"block_name": "N"
},
{
"srno": 4374,
"health_facility_name": "CGHS Dispensary North Avenue",
"address": "31",
"street": "North Avenue",
"landmark": "NA",
"locality": "North Avenue",
"pincode": 110001,
"landline_number": "011-23094420",
"latitude": 28.61891936,
"longitude": 77.20028503,
"altitude": "0",
"facility_type": "Dispensaries",
"state_name": "Delhi",
"district_name": "New Delhi",
"taluka_name": "Chanakya Puri",
"block_name": "N"
},
{
"srno": 4454,
"health_facility_name": "DGD Sachvilaya",
"address": "Delhi Govt. Dispensary",
"street": "Room No. 204-205",
"landmark": "IInd Floor, New Delhi-110001",
"locality": "Sachvilaya",
"pincode": 110001,
"landline_number": "23392406",
"latitude": 28.63003334,
"longitude": 77.25128219,
"altitude": "0",
"facility_type": "Dispensaries",
"state_name": "Delhi",
"district_name": "Central",
"taluka_name": "Kotwali",
"block_name": "N"
},
{
"srno": 4638,
"health_facility_name": "DGD Patiala House Court Dispensary",
"address": "Patiala House",
"street": "Court Complex",
"landmark": "Near Tialak Marg Police Station",
"locality": "Tilak Marg Patiala House court",
"pincode": 110001,
"landline_number": "011-23384209",
"latitude": 28.61652535,
"longitude": 77.23435072,
"altitude": "0",
"facility_type": "Dispensaries",
"state_name": "Delhi",
"district_name": "New Delhi",
"taluka_name": "Chanakya Puri",
"block_name": "N"
},
{
"srno": 4784,
"health_facility_name": "RBI Dispensary",
"address": "6,",
"street": "Sansad Marg",
"landmark": "Opposite Aakashvani Bhawan",
"locality": "Reserve Bank of India",
"pincode": 110001,
"landline_number": "011-23452577",
"latitude": 28.6208346,
"longitude": 77.211628,
"altitude": "0",
"facility_type": "Dispensaries",
"state_name": "Delhi",
"district_name": "New Delhi",
"taluka_name": "Chanakya Puri",
"block_name": "N"
},
{
"srno": 4913,
"health_facility_name": "Kalawati Saran Children Hospital",
"address": "8, Bangla Sahib Rd",
"street": "Block 85",
"landmark": "DIZ Area",
"locality": "Gole Market",
"pincode": 110001,
"landline_number": "011-23365792",
"latitude": 28.6354952,
"longitude": 77.2119759,
"altitude": "0",
"facility_type": "100-500 Bedded Hospital",
"state_name": "Delhi",
"district_name": "New Delhi",
"taluka_name": "Chanakya Puri",
"block_name": "N"
},
{
"srno": 9939,
"health_facility_name": "Lady Hardinge Medical College",
"address": "C-604, Shaheed Bhagat Singh Road, Diz Area,",
"street": "Connaught Place, New Delhi",
"landmark": "NA",
"locality": "NA",
"pincode": 110001,
"landline_number": "1123363728",
"latitude": 28.6342,
"longitude": 77.2126,
"altitude": "0",
"facility_type": "Primary Health Centre",
"state_name": "Delhi",
"district_name": "Central",
"taluka_name": "N",
"block_name": "N"
},
{
"srno": 9940,
"health_facility_name": "Kalawati Saran Children&#39;s Hospital",
"address": "C- 604, Connaught Circus, DIZ Area,",
"street": "Connaught Place, New Delhi",
"landmark": "NA",
"locality": "NA",
"pincode": 110001,
"landline_number": "1123344160",
"latitude": 28.6361,
"longitude": 77.2105,
"altitude": "0",
"facility_type": "Primary Health Centre",
"state_name": "Delhi",
"district_name": "New Delhi",
"taluka_name": "N",
"block_name": "N"
},
{
"srno": 54607,
"health_facility_name": "MCW Reading Road NDMC",
"address": "Ground Floor",
"street": "Punchkuian Road",
"landmark": "Punchkuian Road",
"locality": "Bapu seva samaj sadan",
"pincode": 110001,
"landline_number": "011-23743688",
"latitude": 28.64196637,
"longitude": 77.20283462,
"altitude": "0",
"facility_type": "M&CW Center",
"state_name": "Delhi",
"district_name": "New Delhi",
"taluka_name": "Chanakya Puri",
"block_name": "N"
},
{
"srno": 55410,
"health_facility_name": "MCW Babar Road NDMC",
"address": "NA",
"street": "NA",
"landmark": "Near Bengali Market Opposite Post Office",
"locality": "Babar Road",
"pincode": 110001,
"landline_number": "011-23324146",
"latitude": 28.62949182,
"longitude": 77.23423162,
"altitude": "0",
"facility_type": "M&CW Center",
"state_name": "Delhi",
"district_name": "New Delhi",
"taluka_name": "Chanakya Puri",
"block_name": "N"
},
{
"srno": 84702,
"health_facility_name": "MCW Shishu Kalyan Kendra NDMC",
"address": "Poly clinic complex",
"street": "37",
"landmark": "Shaheed Bhagat Singh Marg Oppsite Lady Harding Medical College",
"locality": "Shaheed Bhagat Singh Marg",
"pincode": 110001,
"landline_number": "011-23365482",
"latitude": 28.63304108,
"longitude": 77.21101825,
"altitude": "0",
"facility_type": "M&CW Center",
"state_name": "Delhi",
"district_name": "New Delhi",
"taluka_name": "Chanakya Puri",
"block_name": "N"
},
{
"srno": 110265,
"health_facility_name": "Lady Harding Medical College and Hospital (LHMC)",
"address": "C-604",
"street": "Diz Area,",
"landmark": "Shaheed Bhagat Singh Road",
"locality": "Connaught Place",
"pincode": 110001,
"landline_number": "011- 2336 3728, 011-23367120",
"latitude": 28.6353427,
"longitude": 77.21296754,
"altitude": "0",
"facility_type": ">500 Bedded Hospital",
"state_name": "Delhi",
"district_name": "New Delhi",
"taluka_name": "Chanakya Puri",
"block_name": "N"
},
{
"srno": 133924,
"health_facility_name": "Ram Manohar Lohia Hospital",
"address": "Baba",
"street": "Kharak Singh Marg",
"landmark": "Near Bangla Sahib Gurudwara",
"locality": "Dr. RML Hospital ,Baba Kharak Singh Marg",
"pincode": 110001,
"landline_number": "011-22344470,23404040,23365525,23404325",
"latitude": 28.62439228,
"longitude": 77.19850515,
"altitude": "0",
"facility_type": ">500 Bedded Hospital",
"state_name": "Delhi",
"district_name": "New Delhi",
"taluka_name": "Chanakya Puri",
"block_name": "N"
},
{
"srno": 173651,
"health_facility_name": "Central Hospital (Northern Railways)",
"address": "Basant",
"street": "Lane",
"landmark": "NA",
"locality": "Connaught Place",
"pincode": 110001,
"landline_number": "011- 2334 4092",
"latitude": 28.63655556,
"longitude": 77.20538889,
"altitude": "0",
"facility_type": "100-500 Bedded Hospital",
"state_name": "Delhi",
"district_name": "New Delhi",
"taluka_name": "Chanakya Puri",
"block_name": "N"
}
]
}